City_ID,City,Lat,Lng,Max Temp,Humidity,Cloudiness,Wind Speed,Country,Date
0,belaya gora,68.5333,146.4167,-44.41,100,89,0.74,RU,1674448429
1,lebu,-37.6167,-73.65,13.87,95,4,3.81,CL,1674448430
2,srednekolymsk,67.45,153.6833,-34.92,96,100,2.19,RU,1674448430
3,morant bay,17.8815,-76.4093,25.79,80,25,5.48,JM,1674448431
4,dikson,73.5069,80.5464,-24.0,91,100,10.38,RU,1674448390
5,miyako,39.6367,141.9525,0.7,84,100,3.56,JP,1674448431
6,hilo,19.7297,-155.09,23.85,90,20,2.06,US,1674448220
7,tovarkovo,54.6762,35.9386,-2.76,96,13,1.34,RU,1674448432
8,ashoknagar,24.5667,77.7167,19.78,53,74,3.84,IN,1674448433
9,ushuaia,-54.8,-68.3,9.81,76,0,2.06,AR,1674448433
10,isangel,-19.55,169.2667,29.19,73,85,2.16,VU,1674448434
11,santa rosa,14.3122,121.1114,31.99,64,38,5.69,PH,1674448435
12,cotonou,6.3654,2.4183,26.4,83,18,2.87,BJ,1674448435
13,festus,38.2206,-90.396,3.09,97,100,2.96,US,1674448436
14,el estor,15.5333,-89.35,21.21,94,1,0.41,GT,1674448436
15,gorontalo,0.5412,123.0595,28.03,76,100,1.28,ID,1674448437
16,khatanga,71.9667,102.5,-42.69,98,53,1.13,RU,1674448437
17,mahebourg,-20.4081,57.7,26.25,88,75,1.54,MU,1674448438
18,ocho rios,18.4025,-77.1048,23.55,83,8,5.16,JM,1674448439
19,haines junction,60.7522,-137.5108,-10.85,98,90,1.11,CA,1674448439
20,shingu,33.7333,135.9833,7.73,89,100,2.01,JP,1674448440
21,katsuura,35.1333,140.3,8.82,86,100,6.58,JP,1674448162
22,vengerovo,55.6848,76.7471,-8.35,95,97,4.51,RU,1674448440
23,nanakuli,21.3906,-158.1547,26.97,58,20,4.12,US,1674448442
24,kapaa,22.0752,-159.319,25.18,82,75,3.09,US,1674448442
25,taoudenni,22.6783,-3.9836,14.18,24,0,4.02,ML,1674448443
26,hobart,-42.8794,147.3294,24.04,65,75,5.66,AU,1674448443
27,rikitea,-23.1203,-134.9692,26.25,75,2,6.95,PF,1674448443
28,baoro,5.6667,15.9667,18.7,28,100,1.61,CF,1674448444
29,bredasdorp,-34.5322,20.0403,19.74,85,15,1.21,ZA,1674448444
30,poum,-20.2333,164.0167,25.89,87,100,4.14,NC,1674448445
31,caluquembe,-13.7833,14.6833,14.55,98,100,2.09,AO,1674448446
32,arraial do cabo,-22.9661,-42.0278,23.16,92,92,4.51,BR,1674448446
33,chokurdakh,70.6333,147.9167,-44.84,100,63,1.0,RU,1674448447
34,mataura,-46.1927,168.8643,16.7,42,10,3.45,NZ,1674448447
35,nhulunbuy,-12.2333,136.7667,25.34,100,75,3.09,AU,1674448448
36,coahuayana,18.7333,-103.6833,20.62,92,32,1.31,MX,1674448449
37,vilhena,-12.7406,-60.1458,20.24,97,92,1.25,BR,1674448450
38,ananas,19.2466,-71.9557,17.76,83,33,1.25,HT,1674448450
39,butaritari,3.0707,172.7902,27.33,75,98,5.03,KI,1674448450
40,saskylakh,71.9167,114.0833,-30.04,87,100,1.27,RU,1674448451
41,kavieng,-2.5744,150.7967,29.02,71,100,5.81,PG,1674448451
42,new norfolk,-42.7826,147.0587,23.84,48,18,2.24,AU,1674448452
43,busselton,-33.65,115.3333,32.38,33,0,5.24,AU,1674448453
44,yellowknife,62.456,-114.3525,-15.71,85,100,3.09,CA,1674448453
45,pandan,14.0453,124.1694,25.48,89,100,6.09,PH,1674448454
46,broken hill,-31.95,141.4333,31.44,18,10,3.04,AU,1674448454
47,ponta do sol,32.6667,-17.1,17.62,62,50,3.73,PT,1674448455
48,sao joao da barra,-21.6403,-41.0511,22.95,93,100,2.54,BR,1674448456
49,asmara,15.3333,38.9333,11.84,70,7,0.75,ER,1674448456
50,vestmannaeyjar,63.4427,-20.2734,1.21,58,100,6.62,IS,1674448457
51,castro,-24.7911,-50.0119,16.99,92,87,0.31,BR,1674448373
52,tiksi,71.6872,128.8694,-32.05,96,100,2.16,RU,1674448457
53,bukachacha,52.9833,116.9167,-24.37,65,83,2.47,RU,1674448458
54,barrow,71.2906,-156.7887,-19.99,77,100,6.69,US,1674448458
55,constitucion,-35.3333,-72.4167,15.05,77,0,4.24,CL,1674448459
56,josanicka banja,43.3895,20.7503,2.61,95,100,2.11,RS,1674448460
57,rawson,-43.3002,-65.1023,15.87,69,13,4.24,AR,1674448274
58,chuncheng,22.1731,111.7886,23.92,59,93,2.0,CN,1674448460
59,akyab,20.15,92.9,26.35,29,29,3.07,MM,1674448461
60,avarua,-21.2078,-159.775,26.03,83,40,2.57,CK,1674448461
61,atuona,-9.8,-139.0333,26.14,79,74,8.21,PF,1674448462
62,bonavista,48.6499,-53.1147,-4.09,79,19,6.64,CA,1674448463
63,hermanus,-34.4187,19.2345,20.45,85,0,2.34,ZA,1674448463
64,husavik,66.0449,-17.3389,-7.23,71,12,5.4,IS,1674448464
65,rogovskaya,45.7312,38.7396,0.48,83,8,5.17,RU,1674448464
66,shimoda,34.6667,138.95,8.2,67,98,3.32,JP,1674448464
67,cabo san lucas,22.8909,-109.9124,19.17,80,29,0.45,MX,1674448465
68,alofi,-19.0595,-169.9187,29.94,62,36,4.12,NU,1674448465
69,kruisfontein,-34.0033,24.7314,19.94,81,5,2.59,ZA,1674448466
70,thompson,55.7435,-97.8558,-13.91,85,100,6.69,CA,1674448240
71,cherskiy,68.75,161.3,-35.74,96,100,0.38,RU,1674448395
72,champerico,14.3,-91.9167,24.68,79,3,3.72,GT,1674448467
73,yar-sale,66.8333,70.8333,-11.47,97,98,2.01,RU,1674448468
74,paamiut,61.994,-49.6678,-7.37,72,99,7.58,GL,1674448468
75,campbell river,50.0163,-125.2446,4.69,100,100,0.0,CA,1674448239
76,conroe,30.3119,-95.456,8.62,78,0,1.99,US,1674448274
77,punta arenas,-53.15,-70.9167,12.06,66,0,4.12,CL,1674448470
78,itaiba,-8.9475,-37.4228,22.93,75,28,2.21,BR,1674448470
79,zhanakorgan,43.9098,67.2495,-5.33,53,0,0.34,KZ,1674448470
80,saint-augustin,51.226,-58.6502,-7.85,92,100,2.73,CA,1674448194
81,the valley,18.217,-63.0578,25.61,74,10,9.34,AI,1674448472
82,torbay,47.6666,-52.7314,-3.74,93,20,8.75,CA,1674448472
83,nagothana,18.5333,73.1333,25.53,39,7,2.08,IN,1674448472
84,amapa,1.0,-52.0,20.74,100,100,0.87,BR,1674448473
85,parakou,9.3372,2.6303,23.47,23,74,1.49,BJ,1674448474
86,mozarlandia,-14.7447,-50.5706,21.78,96,100,1.98,BR,1674448474
87,sisimiut,66.9395,-53.6735,-11.08,94,100,2.85,GL,1674448475
88,jamestown,42.097,-79.2353,0.01,75,100,3.09,US,1674448179
89,mar del plata,-38.0023,-57.5575,18.86,86,0,3.58,AR,1674448475
90,piacabucu,-10.4056,-36.4344,25.43,87,35,4.45,BR,1674448476
91,longyearbyen,78.2186,15.6401,3.91,75,75,6.69,SJ,1674448476
92,seydi,39.4816,62.9137,-3.07,71,22,2.44,TM,1674448459
93,nanortalik,60.1432,-45.2371,-5.45,64,100,3.18,GL,1674448477
94,gravdal,68.1214,13.5031,5.94,56,75,8.75,NO,1674448478
95,luderitz,-26.6481,15.1594,17.72,85,36,6.61,NA,1674448478
96,ribeira grande,38.5167,-28.7,16.54,90,29,9.39,PT,1674448479
97,los llanos de aridane,28.6585,-17.9182,15.62,59,75,6.17,ES,1674448479
98,saint-philippe,-21.3585,55.7679,25.77,78,100,1.25,RE,1674448480
99,iralaya,15.0,-83.2333,24.62,85,3,4.23,HN,1674448480
100,margate,51.3813,1.3862,4.83,71,10,1.34,GB,1674448481
101,vanavara,60.34,102.2797,-33.31,93,100,2.17,RU,1674448481
102,perth,-31.9333,115.8333,37.22,44,0,5.14,AU,1674448240
103,umm lajj,25.0213,37.2685,20.55,53,2,2.99,SA,1674448482
104,qaanaaq,77.484,-69.3632,-34.27,53,10,3.59,GL,1674448482
105,esperance,-33.8667,121.9,24.91,54,0,7.9,AU,1674448439
106,brazzaville,-4.2658,15.2832,22.03,88,100,0.12,CG,1674448262
107,tromso,69.6496,18.957,4.65,81,75,12.35,NO,1674448483
108,bambous virieux,-20.3428,57.7575,26.23,88,75,1.54,MU,1674448484
109,axim,4.8699,-2.2405,25.94,85,22,2.58,GH,1674448484
110,shelton,41.3165,-73.0932,4.16,91,100,5.66,US,1674448485
111,cape town,-33.9258,18.4232,18.95,83,0,1.79,ZA,1674448319
112,bluff,-46.6,168.3333,14.1,57,44,4.36,NZ,1674448485
113,upernavik,72.7868,-56.1549,-25.7,74,100,5.34,GL,1674448486
114,ciudad bolivar,8.1222,-63.5497,23.69,80,55,4.88,VE,1674448486
115,sao filipe,14.8961,-24.4956,20.89,63,20,3.95,CV,1674448486
116,pacific grove,36.6177,-121.9166,13.14,53,0,3.6,US,1674448466
117,clyde river,70.4692,-68.5914,-30.87,69,100,12.86,CA,1674448487
118,padang,-0.9492,100.3543,28.03,87,100,1.27,ID,1674448488
119,qandala,11.472,49.8728,23.79,57,12,2.25,SO,1674448488
120,cruzilia,-21.8386,-44.8083,16.43,95,89,0.77,BR,1674448489
121,hervey bay,-25.2986,152.8535,27.27,59,2,4.51,AU,1674448489
122,yatou,37.15,122.3833,-2.61,64,100,10.36,CN,1674448489
123,prince rupert,54.3161,-130.3201,3.83,92,100,19.55,CA,1674448202
124,iqaluit,63.7506,-68.5145,-21.15,77,100,2.06,CA,1674448490
125,anadyr,64.75,177.4833,-24.72,69,0,2.0,RU,1674448491
126,karratha,-20.7377,116.8463,33.16,49,24,5.52,AU,1674448491
127,necochea,-38.5473,-58.7368,16.22,84,0,3.19,AR,1674448491
128,albany,42.6001,-73.9662,0.68,92,100,0.92,US,1674448492
129,sept-iles,50.2001,-66.3821,-8.0,79,75,2.57,CA,1674448492
130,knysna,-34.0363,23.0471,21.98,75,0,0.91,ZA,1674448493
131,marabba,12.35,32.1833,19.34,21,29,4.55,SD,1674448493
132,vaini,-21.2,-175.2,31.09,70,20,2.57,TO,1674448494
133,port-gentil,-0.7193,8.7815,27.3,77,48,3.5,GA,1674448337
134,sobolevo,54.4299,31.8996,-0.4,91,100,2.44,RU,1674448495
135,vila velha,-20.3297,-40.2925,24.97,94,75,1.54,BR,1674448495
136,kajaani,64.2273,27.7285,-8.97,86,0,4.63,FI,1674448218
137,beringovskiy,63.05,179.3167,-22.45,96,100,6.9,RU,1674448496
138,broome,42.2506,-75.833,0.95,90,100,2.57,US,1674448497
139,tuatapere,-46.1333,167.6833,14.31,56,13,4.07,NZ,1674448497
140,saint-francois,46.4154,3.9054,-0.18,93,100,4.12,FR,1674448498
141,ewa beach,21.3156,-158.0072,26.97,63,20,6.17,US,1674448498
142,saint pete beach,27.7253,-82.7412,22.33,83,75,4.63,US,1674448499
143,yefremov,53.1481,38.0992,-4.62,85,100,2.57,RU,1674448499
144,calama,-22.4667,-68.9333,13.27,62,0,3.6,CL,1674448240
145,tutoia,-2.7619,-42.2744,25.07,88,61,4.25,BR,1674448225
146,carauari,-4.8828,-66.8958,22.49,98,87,0.95,BR,1674448500
147,pevek,69.7008,170.3133,-32.98,91,94,0.81,RU,1674448500
148,sakete,6.7362,2.6587,23.66,92,29,1.11,BJ,1674448501
149,olafsvik,64.8945,-23.7142,1.82,57,46,6.22,IS,1674448502
150,meadow lake,34.8014,-106.5436,4.51,34,100,3.44,US,1674448409
151,bilibino,68.0546,166.4372,-25.12,87,100,1.49,RU,1674448502
152,gallup,35.5281,-108.7426,-1.1,65,100,4.15,US,1674448490
153,bengkulu,-3.8004,102.2655,23.87,94,100,2.46,ID,1674448503
154,mandalgovi,45.7625,106.2708,-25.84,47,3,8.42,MN,1674448504
155,lasa,46.6166,10.7002,-1.47,67,79,2.13,IT,1674448504
156,naze,28.3667,129.4833,18.51,76,64,4.41,JP,1674448505
157,jalu,29.0331,21.5482,10.46,47,0,3.62,LY,1674448506
158,east london,-33.0153,27.9116,20.52,100,0,1.54,ZA,1674448506
159,hithadhoo,-0.6,73.0833,26.85,75,59,1.62,MV,1674448508
160,tilichiki,60.4667,166.1,-12.09,69,100,7.0,RU,1674448508
161,nikolskoye,59.7035,30.7861,-4.06,96,94,0.93,RU,1674448509
162,giaveno,45.047,7.3492,2.1,53,84,1.95,IT,1674448509
163,launceston,-41.45,147.1667,22.41,69,100,2.57,AU,1674448341
164,kaitangata,-46.2817,169.8464,15.98,52,11,6.2,NZ,1674448511
165,sitka,57.0531,-135.33,4.94,75,100,12.35,US,1674448511
166,lavrentiya,65.5833,-171.0,-28.16,93,51,5.68,RU,1674448511
167,riyadh,24.6877,46.7219,13.08,58,90,4.32,SA,1674448362
168,khash,28.2211,61.2158,1.51,46,0,1.98,IR,1674448512
169,malakal,9.5334,31.6605,22.76,18,70,3.22,SS,1674448513
170,sao sebastiao do cai,-29.5867,-51.3756,24.9,83,1,0.72,BR,1674448513
171,airai,-8.9266,125.4092,22.29,65,97,1.39,TL,1674448514
172,pitsunda,43.1592,40.3378,3.1,55,0,2.77,GE,1674448514
173,guerrero negro,27.9769,-114.0611,13.77,67,0,6.11,MX,1674448515
174,xining,36.6167,101.7667,-0.18,12,10,10.59,CN,1674448359
175,bayir,37.2687,28.2167,2.29,67,0,0.83,TR,1674448516
176,sedalia,38.7045,-93.2283,0.95,80,100,2.57,US,1674448516
177,gogrial,8.5332,28.1004,21.66,18,53,3.24,SS,1674448517
178,marysville,48.0518,-122.1771,4.36,90,100,1.54,US,1674448243
179,jaragua,-15.7569,-49.3344,19.64,98,100,1.72,BR,1674448518
180,touros,-5.1989,-35.4608,25.99,80,7,4.15,BR,1674448518
181,muravlenko,63.7898,74.523,-9.24,94,100,5.32,RU,1674448519
182,dallas,32.7668,-96.7836,6.94,60,0,2.57,US,1674448036
183,fougamou,-1.2154,10.5838,22.8,99,99,0.4,GA,1674448519
184,tuktoyaktuk,69.4541,-133.0374,-18.0,85,100,6.17,CA,1674448520
185,fortuna,40.5982,-124.1573,9.43,85,20,4.12,US,1674448520
186,victoria,22.2855,114.1577,23.47,82,6,2.68,HK,1674448451
187,coquimbo,-29.9533,-71.3436,16.85,88,0,1.03,CL,1674448521
188,ottawa,45.4112,-75.6981,-0.79,94,100,2.57,CA,1674448210
189,toba tek singh,30.9743,72.4827,15.5,35,7,3.82,PK,1674448522
190,adet,11.2644,37.4888,15.14,52,64,0.81,ET,1674448522
191,litovko,49.2361,135.1742,-28.11,81,47,1.35,RU,1674448523
192,trairi,-3.2778,-39.2689,24.21,91,68,2.3,BR,1674448277
193,nizwa,22.9333,57.5333,16.11,59,1,0.29,OM,1674448524
194,pauini,-7.7136,-66.9764,21.93,98,81,1.04,BR,1674448524
195,meulaboh,4.1363,96.1285,24.09,91,98,0.5,ID,1674448525
196,berlevag,70.8578,29.0864,3.0,69,75,16.98,NO,1674448525
197,yertsevo,60.7966,40.086,-17.14,100,96,1.58,RU,1674448526
198,mosalsk,54.4881,34.9817,-4.72,95,16,1.46,RU,1674448526
199,puerto ayora,-0.7393,-90.3518,23.64,96,91,1.34,EC,1674448527
200,pangnirtung,66.1451,-65.7125,-25.23,100,100,0.48,CA,1674448527
201,ancud,-41.8697,-73.8203,12.67,93,0,1.03,CL,1674448528
202,zambezi,-13.5432,23.1047,17.69,97,100,2.86,ZM,1674448528
203,seybaplaya,19.65,-90.6667,23.26,87,11,3.56,MX,1674448529
204,verkhoyansk,67.5447,133.385,-47.24,100,95,0.9,RU,1674448529
205,aneho,6.2333,1.6,28.11,81,66,3.91,TG,1674448530
206,sudzha,51.1976,35.2726,-2.63,76,100,3.78,RU,1674448530
207,visby,57.6409,18.296,-1.08,93,100,1.54,SE,1674448531
208,georgetown,5.4112,100.3354,30.97,62,20,2.57,MY,1674448531
209,marrakesh,31.6315,-8.0083,8.04,87,0,2.06,MA,1674448287
210,camacha,33.0833,-16.3333,14.68,67,40,7.72,PT,1674448532
211,kodiak,57.79,-152.4072,2.73,93,100,5.66,US,1674448533
212,fernie,49.5,-115.0687,-2.89,99,93,0.94,CA,1674448239
213,sorrento,40.626,14.3744,5.75,63,71,5.2,IT,1674448534
214,dauphin,51.1494,-100.0502,-0.92,97,100,5.66,CA,1674448431
215,san luis,-33.295,-66.3356,20.98,62,0,2.66,AR,1674448534
216,port hawkesbury,45.6169,-61.3485,-0.46,92,100,3.6,CA,1674448520
217,venado tuerto,-33.7456,-61.9688,21.37,38,9,1.74,AR,1674448535
218,half moon bay,37.4636,-122.4286,13.5,39,0,8.75,US,1674448535
219,bethel,41.3712,-73.414,3.05,87,100,1.54,US,1674448536
220,thap than,15.4606,99.8917,32.06,21,2,1.8,TH,1674448536
221,tommot,58.9564,126.2925,-30.62,91,100,5.03,RU,1674448537
222,port lincoln,-34.7333,135.8667,21.82,62,100,4.68,AU,1674448537
223,lagoa,39.05,-27.9833,15.51,88,0,11.28,PT,1674448538
224,kirakira,-10.4544,161.9205,27.96,75,100,2.69,SB,1674448538
225,severo-kurilsk,50.6789,156.125,-7.95,55,96,3.24,RU,1674448539
226,pocone,-16.2567,-56.6228,26.12,69,94,1.84,BR,1674448539
227,visnes,59.3556,5.2242,2.34,75,100,8.75,NO,1674448540
228,abbeville,50.1,1.8333,1.94,88,83,2.41,FR,1674448541
229,cidreira,-30.1811,-50.2056,22.64,86,0,0.96,BR,1674448541
230,fairbanks,64.8378,-147.7164,-28.02,72,100,0.0,US,1674448521
231,vardo,70.3705,31.1107,-2.01,80,40,10.29,NO,1674448542
232,saint george,37.1041,-113.5841,2.75,43,100,5.14,US,1674448427
233,klaksvik,62.2266,-6.589,6.51,92,100,6.22,FO,1674448543
234,aswan,24.0934,32.907,12.61,37,0,2.57,EG,1674448543
235,okhotsk,59.3833,143.3,-24.64,83,43,4.36,RU,1674448333
236,poso,-1.3959,120.7524,29.66,64,100,1.97,ID,1674448544
237,ambulu,-8.345,113.6058,29.64,60,76,2.84,ID,1674448544
238,dingle,10.9995,122.6711,25.73,85,100,5.42,PH,1674448545
239,provideniya,64.3833,-173.3,-17.94,65,75,15.0,RU,1674448546
240,khorinsk,52.1657,109.7726,-32.8,84,47,1.75,RU,1674448546
241,kahului,20.8947,-156.47,25.01,73,75,5.66,US,1674448546
242,zabid,14.1951,43.3152,23.58,65,23,0.27,YE,1674448547
243,petropavlovsk-kamchatskiy,53.0452,158.6483,-12.67,79,75,3.0,RU,1674448300
244,rabo de peixe,37.8,-25.5833,14.73,82,75,7.72,PT,1674448548
245,port alfred,-33.5906,26.891,21.21,97,56,3.31,ZA,1674448548
246,nicolas bravo,18.45,-88.9167,20.67,99,3,1.47,MX,1674448549
247,lompoc,34.6391,-120.4579,11.08,59,0,9.83,US,1674448549
248,bichura,50.5881,107.6022,-27.02,77,13,1.76,RU,1674448549
249,pedernales,18.0384,-71.744,23.33,49,34,2.81,DO,1674448550
250,aksu,41.1231,80.2644,-8.73,65,2,2.54,CN,1674448550
251,comodoro rivadavia,-45.8667,-67.5,14.92,58,0,6.17,AR,1674448463
252,kieta,-6.2167,155.6333,28.71,70,95,1.88,PG,1674448551
253,kenai,60.5544,-151.2583,-2.7,69,0,6.17,US,1674448466
254,ouro branco,-20.5208,-43.6919,16.87,96,100,1.47,BR,1674448552
255,rio grande,-32.035,-52.0986,21.48,81,1,1.44,BR,1674448552
256,mersin,36.862,34.6509,11.03,46,0,2.26,TR,1674448552
257,killybegs,54.6333,-8.45,7.31,96,94,2.68,IE,1674448553
258,yaan,7.3833,8.5667,22.94,29,77,1.81,NG,1674448553
259,komsomolskiy,40.4272,71.7189,-3.85,71,100,0.95,UZ,1674448554
260,lumby,50.2498,-118.969,-4.98,86,38,1.03,CA,1674448554
261,hengyang,26.8881,112.615,7.83,71,100,4.21,CN,1674448555
262,ladispoli,41.9537,12.0735,4.77,85,100,2.04,IT,1674448555
263,te anau,-45.4167,167.7167,20.24,33,3,2.66,NZ,1674448556
264,vanimo,-2.6741,141.3028,28.65,71,94,1.51,PG,1674448556
265,derzhavinsk,51.1,66.3167,-12.94,87,99,3.49,KZ,1674448557
266,puebloviejo,10.9938,-74.2844,28.1,61,20,4.12,CO,1674448557
267,hambantota,6.1241,81.1185,27.19,89,40,3.09,LK,1674448558
268,piranhas,-16.4269,-51.8222,21.7,98,100,1.52,BR,1674448558
269,halifax,44.6453,-63.5724,3.0,86,100,5.66,CA,1674447969
270,cartagena,10.3997,-75.5144,24.79,88,0,2.06,CO,1674447794
271,faanui,-16.4833,-151.75,25.49,74,88,0.22,PF,1674448559
272,ust-maya,60.4167,134.5333,-41.39,91,100,0.22,RU,1674448559
273,qixingtai,30.4135,111.8874,12.13,31,89,8.47,CN,1674448560
274,bangkalan,-7.0455,112.7351,30.97,67,68,1.04,ID,1674448561
275,gunjur,13.2019,-16.7339,20.18,75,0,4.87,GM,1674448561
276,vitim,59.4511,112.5578,-32.21,89,100,4.25,RU,1674448562
277,usinsk,65.9939,57.5281,-6.44,95,100,6.98,RU,1674448562
278,bar harbor,44.3876,-68.2039,-1.52,94,100,0.0,US,1674448563
279,tasiilaq,65.6145,-37.6368,-7.91,57,12,3.72,GL,1674448276
280,nova mayachka,46.6,33.2271,-1.19,90,7,3.73,UA,1674448564
281,vao,-22.6667,167.4833,26.72,84,84,5.75,NC,1674448565
282,madang,-5.2246,145.7966,28.96,68,100,0.41,PG,1674448565
283,livani,56.3543,26.1758,-7.38,97,88,0.89,LV,1674448566
284,oksfjord,70.2396,22.3479,4.1,78,100,5.08,NO,1674448566
285,laguna,38.421,-121.4238,11.16,46,0,5.66,US,1674448567
286,port huron,42.9709,-82.4249,-0.87,93,40,1.54,US,1674448459
287,heihe,50.2441,127.4902,-30.68,79,100,4.34,CN,1674448328
288,ibia,-19.4783,-46.5389,20.7,99,100,2.15,BR,1674448285
289,ilulissat,69.2167,-51.1,-7.99,86,100,4.12,GL,1674448568
290,coroico,-16.1889,-67.7271,17.84,91,91,0.52,BO,1674448569
291,hasaki,35.7333,140.8333,6.27,79,100,6.27,JP,1674448569
292,abay,49.6311,72.8539,-19.79,80,100,2.97,KZ,1674448569
293,codrington,-38.2667,141.9667,21.79,62,11,6.1,AU,1674448570
294,teknaf,20.8624,92.3058,27.89,29,53,4.33,BD,1674448570
295,geraldton,-28.7667,114.6,27.23,61,8,6.69,AU,1674448287
296,villa carlos paz,-31.4241,-64.4978,21.14,30,2,1.79,AR,1674448571
297,oskarshamn,57.2645,16.4484,-0.01,91,9,1.44,SE,1674448572
298,mecca,21.4267,39.8261,22.53,73,0,1.35,SA,1674448572
299,namibe,-15.1961,12.1522,22.2,83,100,2.23,AO,1674448573
300,souillac,-20.5167,57.5167,25.21,88,75,1.54,MU,1674448573
301,marawi,7.9986,124.2928,20.41,94,100,1.28,PH,1674448574
302,mto wa mbu,-3.35,35.85,22.23,65,98,0.85,TZ,1674448575
303,annau,37.8876,58.516,-5.28,74,5,0.0,TM,1674448575
304,mae chan,20.1467,99.8526,26.49,24,44,0.86,TH,1674448576
305,matara,5.9485,80.5353,29.2,61,94,4.44,LK,1674448576
306,soyo,-6.1349,12.3689,25.78,85,100,1.7,AO,1674448576
307,cairns,-16.9167,145.7667,35.04,57,40,5.66,AU,1674448577
308,alice springs,-23.7,133.8833,34.75,14,14,2.57,AU,1674448578
309,carnarvon,-24.8667,113.6333,27.77,61,56,6.1,AU,1674448518
310,acapulco,16.8634,-99.8901,24.9,78,0,2.06,MX,1674448434
311,yongan,39.6957,113.6871,-15.29,53,99,6.34,CN,1674448578
312,honningsvag,70.9821,25.9704,0.86,75,20,13.38,NO,1674448579
313,saint-joseph,-21.3667,55.6167,25.21,79,100,1.0,RE,1674448416
314,port elizabeth,-33.918,25.5701,21.84,95,75,1.03,ZA,1674448580
315,iaciara,-14.0958,-46.6317,19.79,95,100,0.7,BR,1674448580
316,escanaba,45.7453,-87.0646,-4.46,93,100,0.0,US,1674448581
317,south lake tahoe,38.9332,-119.9844,-5.06,69,100,5.14,US,1674448582
318,aguimes,27.9054,-15.4461,15.37,72,40,5.66,ES,1674448583
319,pangody,65.85,74.4859,-19.35,98,96,3.2,RU,1674448342
320,tabou,4.423,-7.3528,25.37,86,96,3.5,CI,1674448583
321,nome,64.5011,-165.4064,-18.96,55,0,2.06,US,1674448584
322,acajutla,13.5928,-89.8275,24.17,79,6,2.7,SV,1674448453
323,bairiki,1.3292,172.9752,30.0,70,20,3.6,KI,1674448584
324,lewistown,40.5992,-77.5714,2.33,100,100,0.0,US,1674448585
325,pelotas,-31.7719,-52.3425,19.86,87,5,1.13,BR,1674448585
326,leningradskiy,69.3833,178.4167,-34.97,92,28,3.43,RU,1674448586
327,puerto colombia,10.9878,-74.9547,26.05,81,3,8.89,CO,1674448587
328,boende,-0.2167,20.8667,21.55,78,90,1.16,CD,1674448587
329,la romana,18.4273,-68.9728,21.65,89,6,2.41,DO,1674448588
330,nuuk,64.1835,-51.7216,-2.49,91,100,11.34,GL,1674448588
331,wollongong,-34.4333,150.8833,24.49,65,71,3.6,AU,1674448367
332,sharanga,57.1775,46.5396,-19.08,100,100,1.17,RU,1674448589
333,forbes,-33.3833,148.0167,31.07,24,4,2.4,AU,1674448590
334,ayagoz,47.9714,80.4392,-17.57,63,10,1.7,KZ,1674448590
335,jardim,-21.4803,-56.1381,21.83,96,100,1.67,BR,1674448591
336,mildura,-34.2,142.15,32.82,32,89,1.79,AU,1674448419
337,sena madureira,-9.0656,-68.6569,21.99,96,99,1.04,BR,1674448591
338,hamilton,39.1834,-84.5333,1.11,94,100,3.09,US,1674448467
339,kinsale,51.7075,-8.5306,8.65,100,100,1.03,IE,1674448592
340,flin flon,54.7682,-101.865,-7.2,92,92,5.49,CA,1674448593
341,bernay,49.1667,0.6667,1.15,90,15,0.89,FR,1674448593
342,vostok,46.4856,135.8833,-22.75,84,68,2.73,RU,1674448594
343,san patricio,28.017,-97.5169,16.92,50,0,4.17,US,1674448594
344,albemarle,35.3501,-80.2001,5.61,98,100,0.0,US,1674448594
345,havelock,34.8791,-76.9013,17.0,87,100,5.14,US,1674448595
346,kamenka,51.3223,42.7678,-7.35,83,91,3.8,RU,1674448595
347,batagay-alyta,67.8006,130.4114,-31.51,100,97,0.43,RU,1674448596
348,ambon,-3.6954,128.1814,30.08,74,40,7.2,ID,1674448596
349,mastic beach,40.7668,-72.8521,5.61,96,100,4.47,US,1674448597
350,minas,-34.3759,-55.2377,19.2,77,86,3.56,UY,1674448418
351,grindavik,63.8424,-22.4338,-0.74,64,75,3.6,IS,1674448597
352,denpasar,-8.65,115.2167,30.81,70,20,3.6,ID,1674448486
353,villablino,42.9393,-6.3194,-0.27,99,1,1.93,ES,1674448598
354,san bartolo,19.1833,-100.05,8.71,69,0,1.71,MX,1674448599
355,bonnyville,54.2668,-110.735,-3.38,96,86,2.01,CA,1674448599
356,meiganga,6.5167,14.3,18.71,28,100,2.25,CM,1674448599
357,coihaique,-45.5752,-72.0662,9.97,76,0,1.54,CL,1674448600
358,whitehorse,60.7161,-135.0538,-2.57,86,75,7.72,CA,1674448600
359,kholtoson,50.2981,103.3097,-24.29,70,6,1.85,RU,1674448601
360,paciran,-6.8767,112.3761,29.51,68,78,2.18,ID,1674448601
361,awbari,26.5921,12.7805,9.34,23,0,2.27,LY,1674448602
362,payo,-3.7508,103.6372,24.0,93,100,1.23,ID,1674448602
363,vinh,18.6667,105.6667,23.1,71,83,1.99,VN,1674448603
364,drayton valley,53.2168,-114.9854,-9.22,90,26,2.29,CA,1674448603
365,sandnessjoen,66.0217,12.6316,5.36,93,75,9.77,NO,1674448604
366,pecos,31.4229,-103.4932,6.46,41,0,4.12,US,1674448604
367,adrar,20.5022,-10.0711,14.14,16,0,4.46,MR,1674448605
368,miri,4.4148,114.0089,28.08,89,40,2.57,MY,1674448392
369,victor harbor,-35.5667,138.6167,29.27,80,100,1.34,AU,1674448606
370,ussel,45.55,2.3167,-3.86,91,99,3.28,FR,1674448606
371,russell,32.3502,-85.1999,9.78,87,100,3.09,US,1674448606
372,wanning,18.8003,110.3967,23.97,81,99,2.9,CN,1674448607
373,caravelas,-17.7125,-39.2481,24.67,89,100,4.3,BR,1674448607
374,sunrise manor,36.2111,-115.0731,7.23,30,20,6.17,US,1674448608
375,peniche,39.3558,-9.3811,5.31,82,2,5.22,PT,1674448608
376,pangkalanbuun,-2.6833,111.6167,31.35,59,100,1.79,ID,1674448609
377,atar,20.5169,-13.0499,16.55,15,0,4.38,MR,1674448609
378,vila franca do campo,37.7167,-25.4333,15.23,84,16,5.94,PT,1674448610
379,henties bay,-22.116,14.2845,18.48,87,97,2.0,NA,1674448610
380,palmer,42.1584,-72.3287,1.85,87,100,2.06,US,1674448610
381,katobu,-4.9408,122.5276,30.17,62,98,3.03,ID,1674448611
382,wamba,8.9333,8.6,21.58,19,50,1.96,NG,1674448611
383,honiara,-9.4333,159.95,29.19,70,77,1.4,SB,1674448612
384,bend,44.0582,-121.3153,-2.01,78,0,0.45,US,1674448523
385,beian,63.6559,9.5683,4.05,75,75,2.06,NO,1674448613
386,luau,-10.7073,22.2247,17.31,97,100,1.3,AO,1674448613
387,hami,42.8,93.45,-9.86,27,0,3.86,CN,1674448613
388,makakilo city,21.3469,-158.0858,26.18,63,20,6.17,US,1674448614
389,port hardy,50.6996,-127.4199,5.1,81,100,7.2,CA,1674448614
390,sao gabriel da cachoeira,-0.1303,-67.0892,21.88,99,100,0.74,BR,1674448615
391,brae,60.3964,-1.353,8.51,89,100,7.16,GB,1674448615
392,college,64.8569,-147.8028,-28.03,72,75,0.0,US,1674448616
393,aksarka,66.5606,67.7975,-9.98,88,67,4.07,RU,1674448617
394,omboue,-1.5746,9.2618,25.14,86,59,0.85,GA,1674448617
395,slave lake,55.2834,-114.769,-7.01,93,0,3.09,CA,1674448618
396,zyryanka,65.75,150.85,-34.66,97,100,4.61,RU,1674448618
397,krasnoselkup,65.7,82.4667,-27.07,97,75,4.73,RU,1674448619
398,erzin,36.9559,36.2,10.24,61,0,2.63,TR,1674448619
399,port hedland,-20.3167,118.5667,36.03,46,5,5.14,AU,1674448620
400,aden,12.7794,45.0367,24.75,64,85,8.18,YE,1674448620
401,merauke,-8.4667,140.3333,30.26,68,92,3.48,ID,1674448621
402,bambanglipuro,-7.95,110.2833,30.03,65,54,4.41,ID,1674448621
403,chapais,49.7834,-74.8492,-10.12,98,91,1.78,CA,1674448622
404,kosonsoy,41.2561,71.5508,-8.69,70,99,1.16,UZ,1674448622
405,acari,-15.4311,-74.6158,22.98,81,100,1.18,PE,1674448623
406,illapel,-31.6308,-71.1653,20.39,71,0,1.01,CL,1674448571
407,poltavka,54.3663,71.7632,-9.3,95,100,4.85,RU,1674448624
408,yulara,-25.2406,130.9889,36.49,14,0,3.42,AU,1674448624
409,sioux lookout,50.1001,-91.917,-7.96,79,100,4.63,CA,1674448625
410,sarana,56.4773,57.7259,-15.25,98,98,1.49,RU,1674448625
411,san matias,-16.3667,-58.4,24.46,81,51,2.12,BO,1674448626
412,taltal,-25.4,-70.4833,19.34,83,27,0.75,CL,1674448626
413,saldanha,-33.0117,17.9442,16.03,91,0,3.41,ZA,1674448627
414,pinega,64.7001,43.3936,-9.96,91,30,3.81,RU,1674448627
415,kuah,6.3265,99.8432,29.99,66,40,3.09,MY,1674448628
416,narsaq,60.9167,-46.05,-14.88,69,30,3.23,GL,1674448628
417,svetlaya,46.5389,138.3297,-14.26,41,80,2.22,RU,1674448629
418,paraiso,9.8383,-83.8656,18.48,99,74,1.44,CR,1674448629
419,poros,37.4994,23.4536,9.36,66,21,4.69,GR,1674448630
420,gornopravdinsk,60.05,69.9,-13.51,96,80,2.73,RU,1674448631
421,hoquiam,46.9809,-123.8893,7.18,91,100,2.06,US,1674448632
422,praia,14.9215,-23.5087,19.3,72,20,3.09,CV,1674448632
423,gondar,12.6,37.4667,15.57,39,90,1.78,ET,1674448633
424,kovdor,67.5662,30.4758,-7.84,85,59,5.36,RU,1674448633
425,hokitika,-42.7167,170.9667,18.67,64,19,4.37,NZ,1674448634
426,vilkaviskis,54.6517,23.0322,-2.49,85,7,2.84,LT,1674448634
427,khvorostyanka,52.6096,48.9597,-17.42,93,99,0.8,RU,1674448635
428,barranca,-10.75,-77.7667,21.27,78,100,1.13,PE,1674448635
429,teya,60.3778,92.6267,-22.13,97,100,2.05,RU,1674448636
430,inuvik,68.3499,-133.7218,-20.44,84,100,4.12,CA,1674448636
431,nacala,-14.5428,40.6728,25.42,80,96,5.14,MZ,1674448637
432,karema,-6.8205,30.4389,21.13,87,100,1.06,TZ,1674448637
433,ketchikan,55.3422,-131.6461,2.99,93,100,7.2,US,1674448638
434,lyngseidet,69.5763,20.2189,7.0,83,89,7.37,NO,1674448638
435,bowen,-20.0167,148.2333,27.82,66,73,5.91,AU,1674448639
436,kutum,14.2,24.6667,13.04,17,0,2.31,SD,1674448639
437,tall kayf,37.0833,41.0667,3.19,51,0,0.78,TR,1674448640
438,kavaratti,10.5669,72.642,26.83,70,39,4.99,IN,1674448372
439,chiredzi,-21.05,31.6667,23.34,77,94,3.11,ZW,1674448641
440,villa bruzual,9.3328,-69.1208,25.67,63,99,1.42,VE,1674448641
441,tagusao,9.1924,117.8141,27.63,72,100,3.83,PH,1674448642
442,lima,-12.0432,-77.0282,22.72,80,20,3.6,PE,1674447845
443,nipawin,53.3668,-104.0009,0.02,80,100,5.14,CA,1674448643
444,zaprudnya,56.5667,37.4333,-6.39,96,92,2.2,RU,1674448643
445,mount pleasant,32.7941,-79.8626,13.33,96,100,4.63,US,1674448644
446,santa maria da vitoria,-13.3947,-44.1886,19.83,97,95,0.5,BR,1674448644
447,sol-iletsk,51.1631,54.9918,-16.21,78,98,0.96,RU,1674448645
448,williams lake,52.1415,-122.1445,-3.24,92,75,3.6,CA,1674448645
449,sao jose da coroa grande,-8.8978,-35.1478,25.22,86,14,3.07,BR,1674448646
450,sabha,27.0377,14.4283,9.68,27,0,1.59,LY,1674448646
451,chuy,-33.6971,-53.4616,19.24,84,23,1.05,UY,1674448647
452,shitanjing,39.2342,106.3439,-14.72,63,75,9.17,CN,1674448647
453,londoko,49.0333,131.9833,-27.35,75,61,3.51,RU,1674448648
454,ulaangom,49.9811,92.0667,-26.19,94,99,1.8,MN,1674448648
455,mount gambier,-37.8333,140.7667,24.29,48,33,5.65,AU,1674448649
456,sao pedro do sul,-29.6206,-54.1789,22.91,50,32,0.98,BR,1674448649
457,cananeia,-25.0147,-47.9267,23.25,94,57,1.24,BR,1674448650
458,tehachapi,35.1322,-118.449,4.63,90,68,2.24,US,1674448650
459,fort nelson,58.8053,-122.7002,-7.81,98,100,0.0,CA,1674448651
460,zaranj,30.9667,61.8833,0.98,45,0,6.34,AF,1674448469
461,andenes,69.3143,16.1194,4.99,65,40,11.32,NO,1674448652
462,casian,11.035,119.7136,27.0,78,99,9.46,PH,1674448652
463,lumphat,13.4878,106.9816,33.91,37,52,2.77,KH,1674448653
464,goderich,43.7501,-81.7165,-1.72,93,48,1.03,CA,1674448546
465,kimry,56.8667,37.35,-6.24,97,87,1.74,RU,1674448653
466,barcelona,41.3888,2.159,5.27,58,20,5.14,ES,1674448516
467,ha giang,22.8333,104.9833,21.85,61,96,1.08,VN,1674448654
468,lata,40.1629,-8.3327,2.26,64,1,2.15,PT,1674448654
469,edd,13.9297,41.6925,24.67,59,32,7.76,ER,1674448655
470,udachnyy,66.4167,112.4,-35.46,91,99,1.27,RU,1674448655
471,turayf,31.6725,38.6637,6.14,87,96,3.09,SA,1674448656
472,tela,15.7833,-87.45,22.06,84,4,1.4,HN,1674448656
473,yeppoon,-23.1333,150.7333,29.88,63,10,4.5,AU,1674448657
474,fare,-16.7,-151.0167,25.66,74,100,3.95,PF,1674448657
475,beloha,-25.1667,45.05,26.22,73,97,7.59,MG,1674448657
476,roald,62.5833,6.1333,7.08,65,20,8.23,NO,1674448658
477,sungaipenuh,-2.0833,101.3833,20.5,93,100,1.44,ID,1674448658
478,lons-le-saunier,46.75,5.75,-0.98,98,58,1.82,FR,1674448659
479,puerto rondon,6.2805,-71.1,25.27,60,53,2.47,CO,1674448659
480,deputatskiy,69.3,139.9,-39.57,100,73,1.0,RU,1674448660
481,susehri,40.1644,38.0867,1.12,62,0,1.04,TR,1674448660
482,carlos chagas,-17.7031,-40.7664,22.88,91,100,1.67,BR,1674448661
483,barahona,18.2085,-71.1008,22.14,81,59,1.07,DO,1674448661
484,alice town,25.7167,-79.3,24.12,83,74,5.69,BS,1674448662
485,bontang,0.1333,117.5,28.78,69,100,0.82,ID,1674448662
486,uvinza,-5.1036,30.3911,18.7,92,90,0.73,TZ,1674448663
487,magistralnyy,56.1725,107.4458,-33.9,86,28,2.18,RU,1674448663
488,stornoway,58.2093,-6.3865,8.98,93,100,7.2,GB,1674448664
489,nauta,-4.5061,-73.5757,22.82,92,100,0.68,PE,1674448664
490,tumut,-35.3,148.2167,28.66,28,15,6.15,AU,1674448665
491,terrace,54.5163,-128.6035,0.95,100,100,7.72,CA,1674448665
492,flinders,-34.5833,150.8552,22.92,65,68,3.47,AU,1674448665
493,elektrogorsk,55.8794,38.7919,-16.08,100,94,1.17,RU,1674448666
494,kurim,49.2985,16.5314,0.8,90,100,2.24,CZ,1674448667
495,santa cruz del sur,20.7147,-77.9956,22.58,81,0,2.75,CU,1674448667
496,nouadhibou,20.931,-17.0347,16.99,59,0,9.77,MR,1674448667
497,mahon,39.8885,4.2658,6.31,75,40,6.17,ES,1674448668
498,iquique,-20.2208,-70.1431,21.02,78,55,0.25,CL,1674448438
499,norman wells,65.282,-126.8329,-23.98,77,100,0.0,CA,1674448668
500,paita,-5.0892,-81.1144,21.27,83,36,2.28,PE,1674448669
501,noumea,-22.2763,166.4572,29.44,99,74,1.93,NC,1674448381
502,san lorenzo,-25.3333,-57.5333,22.55,100,0,0.0,PY,1674448670
503,celestun,20.8667,-90.4,22.92,93,11,3.92,MX,1674448670
504,avera,33.194,-82.5271,7.73,98,97,3.14,US,1674448671
505,mahajanga,-15.7167,46.3167,24.01,100,75,7.2,MG,1674448671
506,nabire,-3.3667,135.4833,29.0,70,87,1.88,ID,1674448672
507,portland,45.5234,-122.6762,6.22,89,100,2.24,US,1674448383
508,lokosovo,61.1333,74.8167,-13.79,97,99,3.28,RU,1674448673
509,westport,41.1415,-73.3579,4.62,90,100,4.63,US,1674448673
510,nemuro,43.3236,145.575,-5.64,56,37,3.87,JP,1674448674
511,maceio,-9.6658,-35.7353,24.69,94,20,1.03,BR,1674448422
512,senador jose porfirio,-2.5908,-51.9542,22.31,96,55,1.66,BR,1674448674
513,naron,43.5167,-8.1528,3.7,79,10,2.69,ES,1674448675
514,batemans bay,-35.7167,150.1833,22.83,59,30,4.1,AU,1674448675
515,bahir dar,11.5936,37.3908,17.04,48,84,1.52,ET,1674448676
516,jurilovca,44.7667,28.8667,1.13,78,99,5.73,RO,1674448676
517,quebo,11.3333,-14.9333,17.43,82,0,1.7,GW,1674448677
518,paris,48.8534,2.3488,1.77,89,100,5.14,FR,1674448441
519,kushiro,42.975,144.3747,-5.47,49,20,2.06,JP,1674448671
520,labuhan,-6.8844,112.2051,29.75,66,82,2.32,ID,1674448677
521,ahipara,-35.1667,173.1667,20.96,67,99,3.46,NZ,1674448678
522,faya,18.3851,42.4509,8.06,67,2,0.17,SA,1674448678
523,tual,-5.6667,132.75,27.8,77,100,7.89,ID,1674448679
524,pedro juan caballero,-22.5472,-55.7333,19.07,90,100,2.47,PY,1674448680
525,vangaindrano,-23.35,47.6,25.14,88,100,5.5,MG,1674448680
526,conde,-7.2597,-34.9075,25.7,89,40,2.06,BR,1674448681
527,san cristobal,7.7669,-72.225,20.1,74,84,1.32,VE,1674448681
528,carolina,18.3808,-65.9574,24.94,81,20,1.54,PR,1674448682
529,oistins,13.0667,-59.5333,26.05,78,40,10.29,BB,1674448617
530,banjar,-8.19,114.9675,31.43,55,19,1.65,ID,1674448683
531,pacifica,37.6138,-122.4869,13.39,31,0,8.75,US,1674448479
532,la asuncion,11.0333,-63.8628,24.47,85,99,7.32,VE,1674448683
533,ust-nera,64.5667,143.2,-33.61,100,100,1.29,RU,1674448684
534,lensk,60.7253,114.9278,-32.4,90,100,6.26,RU,1674448393
535,claudio,-20.4433,-44.7658,18.08,96,100,0.9,BR,1674448685
536,haverfordwest,51.8017,-4.9691,6.7,92,100,0.45,GB,1674448685
537,ozernovskiy,51.5,156.5167,-9.03,67,78,2.85,RU,1674448686
538,pomabamba,-8.8333,-77.4667,8.8,94,94,2.04,PE,1674448686
539,port augusta,-32.5,137.7667,36.49,14,68,5.97,AU,1674448687
540,nantucket,41.2835,-70.0995,9.08,97,100,5.14,US,1674448688
541,grand gaube,-20.0064,57.6608,26.32,78,99,1.34,MU,1674448688
542,lamar,33.6668,-95.5836,1.87,90,0,0.0,US,1674448689
543,liusha,27.2098,108.59,1.95,95,100,1.46,CN,1674448689
544,astoria,46.1879,-123.8313,6.03,70,100,1.54,US,1674448690
545,ajaccio,42.0,8.9167,4.03,86,0,2.57,FR,1674448690
546,craig,40.5153,-107.5464,-9.03,67,20,2.57,US,1674448573
547,indiaroba,-11.5192,-37.5117,24.02,89,72,1.99,BR,1674448691
548,gat,31.61,34.7642,15.78,77,22,1.84,IL,1674448692
549,leczyca,52.0596,19.1997,1.16,86,100,3.42,PL,1674448670
550,andreiasu de jos,45.75,26.8333,1.1,93,55,1.84,RO,1674448692
551,kloulklubed,7.0419,134.2556,25.28,89,100,8.41,PW,1674448693
552,galle,6.0367,80.217,27.64,70,98,1.77,LK,1674448693
553,malchevskaya,49.0552,40.3625,-4.96,83,64,6.25,RU,1674448694
554,yarmouth,41.7057,-70.2286,9.03,96,100,3.09,US,1674448694
555,banda aceh,5.5577,95.3222,27.43,75,81,3.07,ID,1674448695
556,belen,36.4891,36.2233,1.08,100,20,1.54,TR,1674448695
557,tonantins,-2.8731,-67.8022,22.72,99,100,1.11,BR,1674448696
558,saa,4.3667,11.45,21.06,92,97,1.06,CM,1674448696
559,marang,5.2056,103.2059,29.42,78,39,2.91,MY,1674448697
560,goundam,16.4145,-3.6708,19.13,16,6,4.11,ML,1674448698
561,solginskiy,61.05,41.3428,-9.17,99,97,1.44,RU,1674448698
562,severomuysk,56.1481,113.4267,-34.92,93,77,2.39,RU,1674448699
563,saint-pierre,-21.3393,55.4781,25.82,78,0,1.54,RE,1674448699
564,nata,8.3333,-80.5167,22.55,83,3,2.36,PA,1674448700
565,viedma,-40.8135,-62.9967,17.0,72,9,2.79,AR,1674448700
566,mackenzie,55.2999,-123.1698,-3.88,86,100,3.09,CA,1674448701
567,hailey,43.5196,-114.3153,-11.72,100,100,1.54,US,1674448485
568,luwuk,-0.9516,122.7875,28.53,78,100,1.01,ID,1674448702
569,marfino,55.7028,37.3822,-3.86,93,100,3.0,RU,1674448702
570,sayat,38.7839,63.8803,-13.07,76,43,1.93,TM,1674448703
571,puerto baquerizo moreno,-0.9,-89.6,23.44,86,96,2.5,EC,1674448703
572,kamina,-8.7386,24.9906,17.06,98,100,1.62,CD,1674448704
573,jiblah,13.9216,44.1467,13.75,68,31,0.9,YE,1674448705
574,dutse,11.7594,9.3392,17.79,19,99,2.93,NG,1674448705
575,sao mateus do maranhao,-4.0417,-44.475,22.16,98,41,1.63,BR,1674448706
576,dese,11.1333,39.6333,11.92,52,71,0.92,ET,1674448707
577,korla,41.7597,86.1469,-9.52,59,2,0.81,CN,1674448707
578,addanki,15.8167,79.9833,26.91,56,35,4.47,IN,1674448708
579,shache,38.4167,77.2406,-9.66,80,64,3.6,CN,1674448708
580,sao domingos do maranhao,-5.5758,-44.3853,21.0,98,40,1.15,BR,1674448709
581,kuldur,49.2167,131.6333,-30.35,86,75,3.26,RU,1674448709
582,yzeure,46.5644,3.355,-1.38,93,89,2.44,FR,1674448710
583,sompeta,18.9333,84.6,26.34,41,62,2.55,IN,1674448710
